"original address",latitude,longitude
"Friedenstraße Düsseldorf",51.212037,6.767631
"Sedanstraße Düsseldorf",51.213202,6.772186
"Wissmannstraße Düsseldorf",51.212278,6.768448
"Lüderitzstraße Düsseldorf",51.146704,6.88482
"Petersstraße  Düsseldorf",51.14912,6.884119
"Nettelbeckstraße Düsseldorf",51.237418,6.783008
"Sodenstraße Düsseldorf",51.149219,6.882834
"Solfstraße Düsseldorf",51.147611,6.882429
"Woermannstraße Düsseldorf",51.148137,6.880811
"Finschstraße Düsseldorf",51.148535,6.886084
