{
  "type": "FeatureCollection",
  "features": [
    {
      "type": "Feature",
      "properties": {
        "marker-color": "#996633",
        "marker-size": "medium",
        "marker-symbol": "marker",
        "original address": "Friedenstraße ",
        "href": "https://de.wikipedia.org/wiki/Friede_von_Frankfurt"
      },
      "geometry": {
        "type": "Point",
        "coordinates": [
          6.767631,
          51.212037
        ]
      }
    },
    {
      "type": "Feature",
      "properties": {
        "original address": "Sedanstraße ",
        "marker-color": "#996633",
        "marker-size": "medium",
        "marker-symbol": "marker",
        "href": "https://de.wikipedia.org/wiki/Schlacht_von_Sedan"
      },
      "geometry": {
        "type": "Point",
        "coordinates": [
          6.772186,
          51.213202
        ]
      }
    },
    {
      "type": "Feature",
      "properties": {
        "original address": "Wissmannstraße ",
        "marker-color": "#996633",
        "marker-size": "medium",
        "marker-symbol": "marker",
        "href": "https://de.wikipedia.org/wiki/Hermann_von_Wissmann"
      },
      "geometry": {
        "type": "Point",
        "coordinates": [
          6.768448,
          51.212278
        ]
      }
    },
    {
      "type": "Feature",
      "properties": {
        "original address": "Lüderitzstraße ",
        "marker-color": "#996633",
        "marker-size": "medium",
        "marker-symbol": "marker",
        "href": "https://de.wikipedia.org/wiki/Adolf_L%C3%BCderitz"
      },
      "geometry": {
        "type": "Point",
        "coordinates": [
          6.88482,
          51.146704
        ]
      }
    },
    {
      "type": "Feature",
      "properties": {
        "original address": "Petersstraße  ",
        "marker-color": "#996633",
        "marker-size": "medium",
        "marker-symbol": "marker",
        "href": "https://de.wikipedia.org/wiki/Carl_Peters"
      },
      "geometry": {
        "type": "Point",
        "coordinates": [
          6.884119,
          51.14912
        ]
      }
    },
    {
      "type": "Feature",
      "properties": {
        "original address": "Nettelbeckstraße ",
        "marker-color": "#996633",
        "marker-size": "medium",
        "marker-symbol": "marker",
        "href": "https://de.wikipedia.org/wiki/Joachim_Nettelbeck"
      },
      "geometry": {
        "type": "Point",
        "coordinates": [
          6.783008,
          51.237418
        ]
      }
    },
    {
      "type": "Feature",
      "properties": {
        "original address": "Sodenstraße ",
        "marker-color": "#996633",
        "marker-size": "medium",
        "marker-symbol": "marker",
        "href": "https://de.wikipedia.org/wiki/Julius_von_Soden"
      },
      "geometry": {
        "type": "Point",
        "coordinates": [
          6.882834,
          51.149219
        ]
      }
    },
    {
      "type": "Feature",
      "properties": {
        "original address": "Solfstraße ",
        "marker-color": "#996633",
        "marker-size": "medium",
        "marker-symbol": "marker",
        "href": "https://de.wikipedia.org/wiki/Wilhelm_Solf"
      },
      "geometry": {
        "type": "Point",
        "coordinates": [
          6.882429,
          51.147611
        ]
      }
    },
    {
      "type": "Feature",
      "properties": {
        "original address": "Woermannstraße ",
        "marker-color": "#996633",
        "marker-size": "medium",
        "marker-symbol": "marker",
        "href": "https://de.wikipedia.org/wiki/Adolph_Woermann"
      },
      "geometry": {
        "type": "Point",
        "coordinates": [
          6.880811,
          51.148137
        ]
      }
    },
    {
      "type": "Feature",
      "properties": {
        "original address": "Finschstraße ",
        "marker-color": "#996633",
        "marker-size": "medium",
        "marker-symbol": "marker",
        "href": "https://de.wikipedia.org/wiki/Otto_Finsch"
      },
      "geometry": {
        "type": "Point",
        "coordinates": [
          6.886084,
          51.148535
        ]
      }
    },
    {
      "type": "Feature",
      "properties": {
        "original address": "Leutweinstraße ",
        "marker-color": "#996633",
        "marker-size": "medium",
        "marker-symbol": "marker",
        "href": "https://de.wikipedia.org/wiki/Theodor_Leutwein"
      },
      "geometry": {
        "type": "Point",
        "coordinates": [
          6.883854,
          51.147953
        ]
      }
    },
    {
      "type": "Feature",
      "properties": {
        "original address": "Ulanendenkmal ",
        "marker-color": "#996633",
        "marker-size": "medium",
        "marker-symbol": "marker",
        "href": "https://de.wikipedia.org/wiki/Ulanen"
      },
      "geometry": {
        "type": "Point",
        "coordinates": [
          6.773456,
          51.227741
        ]
      }
    },
    {
      "type": "Feature",
      "properties": {
        "marker-color": "#996633",
        "marker-size": "medium",
        "marker-symbol": "marker",
        "original address": "Kolonialkriegerdenkmal",
        "href": ""
      },
      "geometry": {
        "type": "Point",
        "coordinates": [
          6.777008771896362,
          51.249412262023924
        ]
      }
    },
    {
      "type": "Feature",
      "properties": {
        "marker-color": "#996633",
        "marker-size": "medium",
        "marker-symbol": "marker",
        "original address": "Niederrheinisches Füsilier-Regiment Nr. 39"
      },
      "geometry": {
        "type": "Point",
        "coordinates": [
          6.757718324661255,
          51.25155446177739
        ]
      }
    }
  ]
}
